{
 "contactMethods": [
  {
   "icon": "Mail",
   "title": "Email Support",
   "description": "Reach out to us via email and we will respond within 24 hours.",
   "details": [
    {
     "label": "General Inquiries",
     "value": "medrecords@gmail.com",
     "available": "24/7"
    },
    {
     "label": "Sales",
     "value": "sales.medrecords@gmail.com",
     "available": "Mon-Fri"
    }
   ],
   "color": "pink"
  },
  {
   "icon": "Phone",
   "title": "Phone Support",
   "description": "Call us for immediate assistance during business hours.",
   "details": [
    {
     "label": "Toll-Free",
     "value": "+84 772 573 366",
     "available": "Mon-Fri 9am-6pm"
    },
    {
     "label": "International",
     "value": "+84 931 635 344",
     "available": "Mon-Fri 9am-6pm"
    }
   ],
   "color": "rose"
  },
  {
   "icon": "MessageCircle",
   "title": "Chat Bot",
   "description": "Chat with our support team for quick answers.",
   "details": [
    {
     "label": "Chat Support",
     "value": "Available on website",
     "available": "24/7"
    }
   ],
   "color": "fuchsia"
  }
 ],
 "offices": [
  {
   "city": "Paris",
   "address": "123 Market St, Suite 400",
   "zipCode": "75000",
   "phone": "+84 931 635 344",
   "email": "paris@medrecords.com",
   "hours": "Mon-Fri 9am-6pm",
   "isHeadquarters": true
  },
  {
   "city": "Ha Noi",
   "address": "201B Nguyen Chi Thanh Ward 12 - District 5 - Ho Chi Minh City - Vietnam",
   "zipCode": "70000",
   "phone": "+84 931 635 344",
   "email": "hanoi@medrecords.com",
   "hours": "Mon-Fri 9am-6pm",
   "isHeadquarters": false
  },
  {
   "city": "TP.HCM",
   "address": "201B Nguyen Chi Thanh Ward 12 - District 5 - Ho Chi Minh City - Vietnam",
   "zipCode": "70000",
   "phone": "+84 772 573 366",
   "email": "hcm@medrecords.com",
   "hours": "Mon-Fri 9am-6pm",
   "isHeadquarters": false
  },
  {
   "city": "Da Nang",
   "address": "201B Nguyen Chi Thanh Ward 12 - District 5 - Ho Chi Minh City - Vietnam",
   "zipCode": "70000",
   "phone": "+84 931 635 344",
   "email": "danang@medrecords.com",
   "hours": "Mon-Fri 9am-6pm",
   "isHeadquarters": false
  }
 ],
 "supportResources": [
  {
   "icon": "BookOpen",
   "title": "Knowledge Base",
   "description": "Browse articles and guides for common questions.",
   "link": "#",
   "color": "pink"
  },
  {
   "icon": "HelpCircle",
   "title": "FAQs",
   "description": "Find quick answers to frequently asked questions.",
   "link": "#",
   "color": "rose"
  },
  {
   "icon": "FileText",
   "title": "Documentation",
   "description": "Read detailed documentation for all features.",
   "link": "#",
   "color": "fuchsia"
  },
  {
   "icon": "Users",
   "title": "Community Forum",
   "description": "Connect with other users and share experiences.",
   "link": "#",
   "color": "violet"
  }
 ]
}